line,lineName,color,name,lat,lon,loop
1号线,地铁1号线,#018237,姚家,121.619355,39.023335,0
1号线,地铁1号线,#018237,大连北站,121.607802,39.014758,0
1号线,地铁1号线,#018237,华北路,121.594002,39.008465,0
1号线,地铁1号线,#018237,华南北,121.586203,39.000251,0
1号线,地铁1号线,#018237,华南广场,121.586503,38.989534,0
1号线,地铁1号线,#018237,千山路,121.581709,38.979133,0
1号线,地铁1号线,#018237,松江路,121.577949,38.968898,0
1号线,地铁1号线,#018237,东纬路,121.580125,38.956306,0
1号线,地铁1号线,#018237,春柳,121.582390,38.935994,0
1号线,地铁1号线,#018237,香工街,121.588785,38.931104,0
1号线,地铁1号线,#018237,中长街,121.592008,38.923872,0
1号线,地铁1号线,#018237,兴工街,121.588627,38.916854,0
1号线,地铁1号线,#018237,西安路,121.587,38.9094,0
1号线,地铁1号线,#018237,富国街,121.584703,38.898792,0
1号线,地铁1号线,#018237,会展中心,121.585760,38.891444,0
1号线,地铁1号线,#018237,星海广场,121.582468,38.884617,0
1号线,地铁1号线,#018237,大医二院,121.570510,38.881360,0
1号线,地铁1号线,#018237,黑石礁,121.557527,38.874543,0
1号线,地铁1号线,#018237,学苑广场,121.545596,38.874769,0
1号线,地铁1号线,#018237,海事大学,121.534513,38.866029,0
1号线,地铁1号线,#018237,七贤岭,121.527401,38.856992,0
1号线,地铁1号线,#018237,河口,121.513572,38.843476,0
2号线,地铁2号线,#01A2E2,大连北站,121.607802,39.014758,0
2号线,地铁2号线,#01A2E2,南关岭,121.588918,39.018005,0
2号线,地铁2号线,#01A2E2,体育中心,121.571624,39.016002,0
2号线,地铁2号线,#01A2E2,卫生中心,121.557030,39.015062,0
2号线,地铁2号线,#01A2E2,后革,121.542653,39.014913,0
2号线,地铁2号线,#01A2E2,革镇堡,121.529956,39.008097,0
2号线,地铁2号线,#01A2E2,中革,121.522284,38.998817,0
2号线,地铁2号线,#01A2E2,前革,121.518075,38.983157,0
2号线,地铁2号线,#01A2E2,辛寨子,121.515132,38.971093,0
2号线,地铁2号线,#01A2E2,机场,121.540484,38.961743,0
2号线,地铁2号线,#01A2E2,虹港路,121.543076,38.955789,0
2号线,地铁2号线,#01A2E2,虹锦路,121.540146,38.947149,0
2号线,地铁2号线,#01A2E2,红旗西路,121.533457,38.927759,0
2号线,地铁2号线,#01A2E2,湾家,121.541876,38.924548,0
2号线,地铁2号线,#01A2E2,马栏广场,121.554623,38.920078,0
2号线,地铁2号线,#01A2E2,辽师大,121.564077,38.916019,0
2号线,地铁2号线,#01A2E2,交通大学,121.571770,38.912891,0
2号线,地铁2号线,#01A2E2,西安路,121.587,38.9094,0
2号线,地铁2号线,#01A2E2,联合路,121.596452,38.914197,0
2号线,地铁2号线,#01A2E2,人民广场,121.610339,38.910677,0
2号线,地铁2号线,#01A2E2,一二九街,121.622608,38.913014,0
2号线,地铁2号线,#01A2E2,青泥洼桥,121.631329,38.916949,0
2号线,地铁2号线,#01A2E2,友好广场,121.637633,38.919626,0
2号线,地铁2号线,#01A2E2,中山广场,121.643895,38.921551,0
2号线,地铁2号线,#01A2E2,港湾广场,121.660174,38.926683,0
2号线,地铁2号线,#01A2E2,会议中心,121.675493,38.924416,0
2号线,地铁2号线,#01A2E2,东港,121.689681,38.920149,0
2号线,地铁2号线,#01A2E2,东海,121.702930,38.915165,0
2号线,地铁2号线,#01A2E2,海之韵,121.715485,38.910999,0
3号线,地铁3号线,#F0087D,大连站,121.629500,38.922955,0
3号线,地铁3号线,#F0087D,香炉礁,121.604,38.9286,0
3号线,地铁3号线,#F0087D,金家街,121.602,38.9678,0
3号线,地铁3号线,#F0087D,泉水,121.617,39.0014,0
3号线,地铁3号线,#F0087D,后盐,121.637711,39.021362,0
3号线,地铁3号线,#F0087D,大连湾,121.71,39.0354,0
3号线,地铁3号线,#F0087D,金马路,121.744,39.0491,0
3号线,地铁3号线,#F0087D,开发区,121.775,39.0536,0
3号线,地铁3号线,#F0087D,保税区,121.802372,39.060374,0
3号线,地铁3号线,#F0087D,双D港,121.871669,39.063423,0
3号线,地铁3号线,#F0087D,小窑湾,121.899002,39.076655,0
3号线,地铁3号线,#F0087D,金石滩,122.005959,39.086650,0
5号线,地铁5号线,#FC0601,后关,121.636867,39.052635,0
5号线,地铁5号线,#FC0601,后盐,121.637711,39.021362,0
5号线,地铁5号线,#FC0601,龙华路,121.639339,39.014091,0
5号线,地铁5号线,#FC0601,泉水东,121.635987,39.006218,0
5号线,地铁5号线,#FC0601,中华东路,121.639637,38.996124,0
5号线,地铁5号线,#FC0601,甘北路,121.631594,38.980282,0
5号线,地铁5号线,#FC0601,甘井子街,121.626949,38.973941,0
5号线,地铁5号线,#FC0601,梭鱼湾,121.625931,38.962558,0
5号线,地铁5号线,#FC0601,梭鱼湾南,121.619513,38.953732,0
5号线,地铁5号线,#FC0601,大连站,121.629500,38.922955,0
5号线,地铁5号线,#FC0601,青泥洼桥,121.631329,38.916949,0
5号线,地铁5号线,#FC0601,劳动公园,121.639760,38.910607,0
5号线,地铁5号线,#FC0601,石葵路,121.644947,38.900604,0
5号线,地铁5号线,#FC0601,青云街,121.648800,38.894294,0
5号线,地铁5号线,#FC0601,桃源,121.651492,38.887321,0
5号线,地铁5号线,#FC0601,秀月街,121.659474,38.883452,0
5号线,地铁5号线,#FC0601,虎滩公园,121.673658,38.878110,0
5号线,地铁5号线,#FC0601,虎滩新区,121.685983,38.877975,0
12号线,地铁12号线,#5A2B8D,河口,121.513572,38.843476,0
12号线,地铁12号线,#5A2B8D,蔡大岭,121.494729,38.850961,0
12号线,地铁12号线,#5A2B8D,黄泥川,121.448955,38.855817,0
12号线,地铁12号线,#5A2B8D,龙王塘,121.403379,38.835756,0
12号线,地铁12号线,#5A2B8D,塔河湾,121.341534,38.823517,0
12号线,地铁12号线,#5A2B8D,旅顺,121.252812,38.843909,0
12号线,地铁12号线,#5A2B8D,铁山,121.177659,38.801994,0
12号线,地铁12号线,#5A2B8D,旅顺新港,121.144988,38.806869,0
13号线,地铁13号线,#FCD600,普兰店振兴街,121.924057,39.432083,0
13号线,地铁13号线,#FCD600,普兰店开发区,121.949244,39.412332,0
13号线,地铁13号线,#FCD600,海湾高中,121.946613,39.399042,0
13号线,地铁13号线,#FCD600,大医三院,121.934112,39.386497,0
13号线,地铁13号线,#FCD600,长店堡,121.897125,39.37959,0
13号线,地铁13号线,#FCD600,石河北海,121.862484,39.359692,0
13号线,地铁13号线,#FCD600,普湾体育场,121.839482,39.358163,0
13号线,地铁13号线,#FCD600,石河黄旗,121.820923,39.327436,0
13号线,地铁13号线,#FCD600,三十里堡,121.784808,39.265152,0
13号线,地铁13号线,#FCD600,二十里堡,121.756796,39.196747,0
13号线,地铁13号线,#FCD600,十三里,121.758494,39.172915,0
13号线,地铁13号线,#FCD600,九里,121.742160,39.148399,0
保税区线,地铁保税区线,#F0087D,大连站,121.629500,38.922955,0
保税区线,地铁保税区线,#F0087D,香炉礁,121.604,38.9286,0
保税区线,地铁保税区线,#F0087D,金家街,121.602,38.9678,0
保税区线,地铁保税区线,#F0087D,泉水,121.617,39.0014,0
保税区线,地铁保税区线,#F0087D,后盐,121.637711,39.021362,0
保税区线,地铁保税区线,#F0087D,大连湾,121.71,39.0354,0
保税区线,地铁保税区线,#F0087D,金马路,121.744,39.0491,0
保税区线,地铁保税区线,#F0087D,开发区,121.775,39.0536,0
保税区线,地铁保税区线,#F0087D,保税区,121.802372,39.060374,0
九里线,地铁九里线,#F0087D,和平路,121.725334,39.107724,0
九里线,地铁九里线,#F0087D,东山路,121.737460,39.092221,0
九里线,地铁九里线,#F0087D,鸿玮澜山,121.751,39.0821,0
九里线,地铁九里线,#F0087D,通世泰,121.767,39.068,0
九里线,地铁九里线,#F0087D,开发区,121.775,39.0536,0
九里线,地铁九里线,#F0087D,金马路,121.744,39.0491,0
九里线,地铁九里线,#F0087D,大连湾,121.71,39.0354,0
九里线,地铁九里线,#F0087D,后盐,121.637711,39.021362,0
九里线,地铁九里线,#F0087D,泉水,121.617,39.0014,0
九里线,地铁九里线,#F0087D,金家街,121.602,38.9678,0
九里线,地铁九里线,#F0087D,香炉礁,121.604,38.9286,0
九里线,地铁九里线,#F0087D,大连站,121.629500,38.922955,0
九里支线,地铁九里支线,#F0087D,九里,121.742160,39.148399,0
九里支线,地铁九里支线,#F0087D,十九局,121.730192,39.129540,0
九里支线,地铁九里支线,#F0087D,和平路,121.725334,39.107724,0
九里支线,地铁九里支线,#F0087D,东山路,121.737460,39.092221,0
九里支线,地铁九里支线,#F0087D,鸿玮澜山,121.751,39.0821,0
九里支线,地铁九里支线,#F0087D,通世泰,121.767,39.068,0
九里支线,地铁九里支线,#F0087D,开发区,121.775,39.0536,0
